<?xml version="1.0" encoding="UTF-8"?>
<kml xmlns="http://www.opengis.net/kml/2.2">
  <Document>
    <name>Points</name>
    <Style id="icon-1899-0288D1-nodesc-normal">
      <IconStyle>
        <color>ffd18802</color>
        <scale>1</scale>
        <Icon>
          <href>http://www.gstatic.com/mapspro/images/stock/503-wht-blank_maps.png</href>
        </Icon>
        <hotSpot x="16" xunits="pixels" y="32" yunits="insetPixels"/>
      </IconStyle>
      <LabelStyle>
        <scale>0</scale>
      </LabelStyle>
      <BalloonStyle>
        <text><![CDATA[<h3>$[name]</h3>]]></text>
      </BalloonStyle>
    </Style>
    <Style id="icon-1899-0288D1-nodesc-highlight">
      <IconStyle>
        <color>ffd18802</color>
        <scale>1</scale>
        <Icon>
          <href>http://www.gstatic.com/mapspro/images/stock/503-wht-blank_maps.png</href>
        </Icon>
        <hotSpot x="16" xunits="pixels" y="32" yunits="insetPixels"/>
      </IconStyle>
      <LabelStyle>
        <scale>1</scale>
      </LabelStyle>
      <BalloonStyle>
        <text><![CDATA[<h3>$[name]</h3>]]></text>
      </BalloonStyle>
    </Style>
    <StyleMap id="icon-1899-0288D1-nodesc">
      <Pair>
        <key>normal</key>
        <styleUrl>#icon-1899-0288D1-nodesc-normal</styleUrl>
      </Pair>
      <Pair>
        <key>highlight</key>
        <styleUrl>#icon-1899-0288D1-nodesc-highlight</styleUrl>
      </Pair>
    </StyleMap>
    <Placemark>
      <name>J_AHall_E1</name>
      <styleUrl>#icon-1899-0288D1-nodesc</styleUrl>
      <Point>
        <coordinates>
          -97.1094719,32.731104,0
        </coordinates>
      </Point>
    </Placemark>
    <Placemark>
      <name>J_UC_E7</name>
      <styleUrl>#icon-1899-0288D1-nodesc</styleUrl>
      <Point>
        <coordinates>
          -97.1120261,32.7316198,0
        </coordinates>
      </Point>
    </Placemark>
    <Placemark>
      <name>J_UC_E3</name>
      <styleUrl>#icon-1899-0288D1-nodesc</styleUrl>
      <Point>
        <coordinates>
          -97.110347,32.7316243,0
        </coordinates>
      </Point>
    </Placemark>
    <Placemark>
      <name>J_UC_E1</name>
      <styleUrl>#icon-1899-0288D1-nodesc</styleUrl>
      <Point>
        <coordinates>
          -97.111495,32.7319884,0
        </coordinates>
      </Point>
    </Placemark>
    <Placemark>
      <name>J_UC_E6</name>
      <styleUrl>#icon-1899-0288D1-nodesc</styleUrl>
      <Point>
        <coordinates>
          -97.1117079,32.7313265,0
        </coordinates>
      </Point>
    </Placemark>
    <Placemark>
      <name>J_UC_E4</name>
      <styleUrl>#icon-1899-0288D1-nodesc</styleUrl>
      <Point>
        <coordinates>
          -97.1105153,32.7312593,0
        </coordinates>
      </Point>
    </Placemark>
    <Placemark>
      <name>J_UC_E2</name>
      <styleUrl>#icon-1899-0288D1-nodesc</styleUrl>
      <Point>
        <coordinates>
          -97.1104034,32.7319311,0
        </coordinates>
      </Point>
    </Placemark>
    <Placemark>
      <name>J_UC_E5</name>
      <styleUrl>#icon-1899-0288D1-nodesc</styleUrl>
      <Point>
        <coordinates>
          -97.1111155,32.7312565,0
        </coordinates>
      </Point>
    </Placemark>
    <Placemark>
      <name>J_AHall_E2</name>
      <styleUrl>#icon-1899-0288D1-nodesc</styleUrl>
      <Point>
        <coordinates>
          -97.1094431,32.7318872,0
        </coordinates>
      </Point>
    </Placemark>
    <Placemark>
      <name>J_AHall_E3</name>
      <styleUrl>#icon-1899-0288D1-nodesc</styleUrl>
      <Point>
        <coordinates>
          -97.1092004,32.7318838,0
        </coordinates>
      </Point>
    </Placemark>
    <Placemark>
      <name>J_AHall_E4</name>
      <styleUrl>#icon-1899-0288D1-nodesc</styleUrl>
      <Point>
        <coordinates>
          -97.1093439,32.7303246,0
        </coordinates>
      </Point>
    </Placemark>
    <Placemark>
      <name>J_ThermalPlant_E1</name>
      <styleUrl>#icon-1899-0288D1-nodesc</styleUrl>
      <Point>
        <coordinates>
          -97.1102491,32.730264,0
        </coordinates>
      </Point>
    </Placemark>
    <Placemark>
      <name>J_ThermalPlant_E2</name>
      <styleUrl>#icon-1899-0288D1-nodesc</styleUrl>
      <Point>
        <coordinates>
          -97.1101934,32.7308171,0
        </coordinates>
      </Point>
    </Placemark>
    <Placemark>
      <name>J_UTA Planetarium_E1</name>
      <styleUrl>#icon-1899-0288D1-nodesc</styleUrl>
      <Point>
        <coordinates>
          -97.1120459,32.7303317,0
        </coordinates>
      </Point>
    </Placemark>
    <Placemark>
      <name>J_UTA Planetarium E2</name>
      <styleUrl>#icon-1899-0288D1-nodesc</styleUrl>
      <Point>
        <coordinates>
          -97.1120341,32.7305819,0
        </coordinates>
      </Point>
    </Placemark>
    <Placemark>
      <name>J_HealthCenter_E1</name>
      <styleUrl>#icon-1899-0288D1-nodesc</styleUrl>
      <Point>
        <coordinates>
          -97.1108734,32.7303636,0
        </coordinates>
      </Point>
    </Placemark>
    <Placemark>
      <name>J_HealthCenter_Parking</name>
      <styleUrl>#icon-1899-0288D1-nodesc</styleUrl>
      <Point>
        <coordinates>
          -97.1106139,32.7303771,0
        </coordinates>
      </Point>
    </Placemark>
    <Placemark>
      <name>J_Brazos_Ent_A</name>
      <styleUrl>#icon-1899-0288D1-nodesc</styleUrl>
      <Point>
        <coordinates>
          -97.1108653,32.7308177,0
        </coordinates>
      </Point>
    </Placemark>
    <Placemark>
      <name>J_Brazos_Ent_B</name>
      <styleUrl>#icon-1899-0288D1-nodesc</styleUrl>
      <Point>
        <coordinates>
          -97.110864,32.7309011,0
        </coordinates>
      </Point>
    </Placemark>
    <Placemark>
      <name>J_Brazos_Ent_C</name>
      <styleUrl>#icon-1899-0288D1-nodesc</styleUrl>
      <Point>
        <coordinates>
          -97.1107279,32.7309525,0
        </coordinates>
      </Point>
    </Placemark>
    <Placemark>
      <name>J_Brazos_Ent_D</name>
      <styleUrl>#icon-1899-0288D1-nodesc</styleUrl>
      <Point>
        <coordinates>
          -97.1106239,32.7309536,0
        </coordinates>
      </Point>
    </Placemark>
    <Placemark>
      <name>J_UniversityCollege_E1</name>
      <styleUrl>#icon-1899-0288D1-nodesc</styleUrl>
      <Point>
        <coordinates>
          -97.1121307,32.7309587,0
        </coordinates>
      </Point>
    </Placemark>
    <Placemark>
      <name>J_UniversityCollege_E2</name>
      <styleUrl>#icon-1899-0288D1-nodesc</styleUrl>
      <Point>
        <coordinates>
          -97.1119315,32.7308746,0
        </coordinates>
      </Point>
    </Placemark>
    <Placemark>
      <name>J_CollegeHall_E1</name>
      <styleUrl>#icon-1899-0288D1-nodesc</styleUrl>
      <Point>
        <coordinates>
          -97.1115788,32.7309231,0
        </coordinates>
      </Point>
    </Placemark>
    <Placemark>
      <name>J_CollegeHall_E2</name>
      <styleUrl>#icon-1899-0288D1-nodesc</styleUrl>
      <Point>
        <coordinates>
          -97.1112248,32.7308487,0
        </coordinates>
      </Point>
    </Placemark>
  </Document>
</kml>
